{
  "metadata" : {
    "browser_name" : "web4app",
    "browser_version" : "26.0",
    "data_type" : "history",
    "export_time_usec" : 1770919011454089,
    "schema_version" : 1
  },
  "history" : [
    {
      "url" : "https://download.netify.ai/5/25.7/amd64/netify-sink-log_1.0.33,1.pkg",
      "time_usec" : 1768822299355276,
      "visit_count" : 1,
      "destination_url" : "https://download.netify.ai/_theme/missing.html",
      "destination_time_usec" : 1768822299355547
    },
    {
      "url" : "https://download.netify.ai/5/",
      "time_usec" : 1768822332088867,
      "visit_count" : 1,
      "title" : "Index of /5"
    },
    {
      "url" : "https://download.netify.ai/5/opnsense/fingerprint",
      "time_usec" : 1768822348758255,
      "visit_count" : 1
    },
    {
      "url" : "https://download.netify.ai/5/opnsense/25.7/meta.conf",
      "time_usec" : 1768822424650352,
      "visit_count" : 1
    },
    {
      "url" : "https://download.netify.ai/5/opnsense/25.7/amd64/",
      "time_usec" : 1768822480570056,
      "visit_count" : 1,
      "title" : "Index of /5/opnsense/25.7/amd64"
    },
    {
      "url" : "https://download.netify.ai/5/opnsense/24.7/",
      "time_usec" : 1768822546923883,
      "visit_count" : 1,
      "title" : "Index of /5/opnsense/24.7"
    },
    {
      "url" : "https://download.netify.ai/5/opnsense/",
      "time_usec" : 1768822556472359,
      "visit_count" : 3,
      "title" : "Index of /5/opnsense"
    },
    {
      "url" : "https://download.netify.ai/5/opnsense/24.7-testing/",
      "time_usec" : 1768822559313550,
      "visit_count" : 1,
      "title" : "Index of /5/opnsense/24.7-testing"
    },
    {
      "url" : "https://download.netify.ai/5/opnsense/25.7/",
      "time_usec" : 1768822568943950,
      "visit_count" : 2,
      "title" : "Index of /5/opnsense/25.7"
    },
    {
      "url" : "http://www.apple.com/DTDs/PropertyList-1.0.dtd",
      "time_usec" : 1768824470544350,
      "visit_count" : 1,
      "destination_url" : "https://www.apple.com/DTDs/PropertyList-1.0.dtd",
      "destination_time_usec" : 1768824470544564
    },
    {
      "url" : "https://www.apple.com/DTDs/PropertyList-1.0.dtd",
      "time_usec" : 1768824470544564,
      "visit_count" : 1,
      "source_url" : "http://www.apple.com/DTDs/PropertyList-1.0.dtd",
      "source_time_usec" : 1768824470544350
    },
    {
      "url" : "https://pypi.org/project/memory-profiler",
      "time_usec" : 1768835226565062,
      "visit_count" : 1,
      "title" : "memory-profiler · PyPI"
    },
    {
      "url" : "https://psutil.readthedocs.io/en/latest/index.html?highlight=memory_info#psutil.Process.memory_full_info",
      "time_usec" : 1768835299640157,
      "visit_count" : 1,
      "title" : "psutil documentation — psutil 7.2.2 documentation"
    },
    {
      "url" : "https://psutil.readthedocs.io/en/latest/index.html#psutil.Process.memory_full_info/llms.txt",
      "time_usec" : 1768835438199216,
      "visit_count" : 1,
      "title" : "psutil documentation — psutil 7.2.2 documentation"
    },
    {
      "url" : "https://psutil.readthedocs.io/en/latest/index.html#psutil.Process.memory_full_info",
      "time_usec" : 1768835472602757,
      "visit_count" : 2,
      "title" : "psutil documentation — psutil 7.2.2 documentation"
    },
    {
      "url" : "https://www.python.org/downloads",
      "time_usec" : 1768835542708264,
      "visit_count" : 1,
      "destination_url" : "https://www.python.org/downloads/",
      "destination_time_usec" : 1768835542708427
    },
    {
      "url" : "https://www.python.org/downloads/",
      "time_usec" : 1768835542708427,
      "visit_count" : 1,
      "title" : "Download Python | Python.org",
      "source_url" : "https://www.python.org/downloads",
      "source_time_usec" : 1768835542708264
    },
    {
      "url" : "https://www.python.org/downloads/latest/python3.15/",
      "time_usec" : 1768835557806787,
      "visit_count" : 1,
      "destination_url" : "https://www.python.org/downloads/release/python-3150a5/",
      "destination_time_usec" : 1768835557807021
    },
    {
      "url" : "https://www.python.org/downloads/release/python-3150a5/",
      "time_usec" : 1768835557807021,
      "visit_count" : 1,
      "title" : "Python Release Python 3.15.0a5 | Python.org",
      "source_url" : "https://www.python.org/downloads/latest/python3.15/",
      "source_time_usec" : 1768835557806787
    },
    {
      "url" : "https://www.python.org/downloads/latest/pymanager/",
      "time_usec" : 1768835586675303,
      "visit_count" : 1,
      "destination_url" : "https://www.python.org/downloads/release/pymanager-252/",
      "destination_time_usec" : 1768835586675596
    },
    {
      "url" : "https://www.python.org/downloads/release/pymanager-252/",
      "time_usec" : 1768835586675596,
      "visit_count" : 1,
      "title" : "Python Release Python install manager 25.2 | Python.org",
      "source_url" : "https://www.python.org/downloads/latest/pymanager/",
      "source_time_usec" : 1768835586675303
    },
    {
      "url" : "https://docs.python.org/dev/using/windows.html",
      "time_usec" : 1768835649744324,
      "visit_count" : 2,
      "title" : "4. Using Python on Windows — Python 3.15.0a5 documentation"
    },
    {
      "url" : "https://www.nuget.org/",
      "time_usec" : 1768835746272268,
      "visit_count" : 1,
      "title" : "NuGet Gallery | Home"
    },
    {
      "url" : "https://docs.microsoft.com/nuget/quickstart/create-and-publish-a-package",
      "time_usec" : 1768835756039672,
      "visit_count" : 1,
      "destination_url" : "https://learn.microsoft.com/en-gb/nuget/quickstart/create-and-publish-a-package-using-visual-studio",
      "destination_time_usec" : 1768835756039996
    },
    {
      "url" : "https://learn.microsoft.com/en-gb/nuget/quickstart/create-and-publish-a-package-using-visual-studio",
      "time_usec" : 1768835756962793,
      "visit_count" : 2,
      "title" : "Quickstart: Create and publish a NuGet package using Visual Studio (Windows only) | Microsoft Learn"
    },
    {
      "url" : "https://learn.microsoft.com/en-gb/nuget/quickstart/create-and-publish-a-package-using-visual-studio?tabs=netcore-cli",
      "time_usec" : 1768835757033244,
      "visit_count" : 1,
      "title" : "Quickstart: Create and publish a NuGet package using Visual Studio (Windows only) | Microsoft Learn"
    },
    {
      "url" : "https://learn.microsoft.com/en-gb/nuget/create-packages/creating-a-package",
      "time_usec" : 1768835891080492,
      "visit_count" : 2,
      "title" : "Create a NuGet package using nuget.exe CLI | Microsoft Learn"
    },
    {
      "url" : "https://github.com/purpyl-media/btc-hac",
      "time_usec" : 1768836350924689,
      "visit_count" : 5,
      "title" : "Page not found · GitHub · GitHub",
      "latest_visit_was_load_failure" : true
    },
    {
      "url" : "https://github.com/login?return_to=https%3A%2F%2Fgithub.com%2Fpurpyl-media%2Fbtc-hac",
      "time_usec" : 1768836354877694,
      "visit_count" : 3,
      "title" : "Sign in to GitHub · GitHub"
    },
    {
      "url" : "https://www.bing.com/search?q=clone+https%3A%2F%2Fgithub.com%2Fpurpyl-media%2Fbtc-hack.git+btc-hack&form=APIPH1&PC=APPL",
      "time_usec" : 1768836416528703,
      "visit_count" : 1,
      "title" : "clone https://github.com/purpyl-media/btc-hack.git btc-hack - Search"
    },
    {
      "url" : "https://gist.github.com/shenxuanying2019-ctrl/9619cb4261713e863df627698f1d9319.js",
      "time_usec" : 1768854753075801,
      "visit_count" : 1
    },
    {
      "url" : "https://www.bing.com/search?q=rdoc-ref%3AREADME.md&form=APIPH1&PC=APPL",
      "time_usec" : 1768860140586340,
      "visit_count" : 1,
      "title" : "rdoc-ref:README.md - Search"
    },
    {
      "url" : "https://docs.ruby-lang.org/en/3.0/README_md.html",
      "time_usec" : 1768860159664643,
      "visit_count" : 1,
      "title" : "README - RDoc Documentation"
    },
    {
      "url" : "https://docs.ruby-lang.org/en/3.0/win32/README.win32",
      "time_usec" : 1768860223698799,
      "visit_count" : 1,
      "title" : "404 Not Found",
      "latest_visit_was_load_failure" : true
    },
    {
      "url" : "https://mempool.space/rbf",
      "time_usec" : 1768860239722942,
      "visit_count" : 2,
      "title" : "RBF Replacements - mempool - Bitcoin Explorer"
    },
    {
      "url" : "https://www.localhosts.me/dns-records/0.3.0.0.0.0.0.0.0.0.0.0.0.0.0.0.0.0.0.0.c.c.8.0.2.0.5.0.1.0.0.2.ip6.arpa.",
      "time_usec" : 1768860261183262,
      "visit_count" : 1,
      "title" : "404 Not Found",
      "latest_visit_was_load_failure" : true
    },
    {
      "url" : "https://mempool.space/rbf#fullrbf",
      "time_usec" : 1768860269146412,
      "visit_count" : 1,
      "title" : "RBF Replacements - mempool - Bitcoin Explorer"
    },
    {
      "url" : "https://mempool.space/tx/8c52060fcc5fe5b2ccfcef75fdc7d8194dc6eddd52845b1c5336a187220ed935",
      "time_usec" : 1768860288634711,
      "visit_count" : 1,
      "title" : "RBF Replacements - mempool - Bitcoin Explorer"
    },
    {
      "url" : "https://mempool.space/tx/8c52060fcc5fe5b2ccfcef75fdc7d8194dc6eddd52845b1c5336a187220ed935?mode=details",
      "time_usec" : 1768860288722677,
      "visit_count" : 1,
      "title" : "Transaction: 8c52060fcc5fe5b2ccfcef75fdc7d8194dc6eddd52845b1c5336a187220ed935 - mempool - Bitcoin Explorer"
    },
    {
      "url" : "https://mempool.space/address/bc1q3d5ght0tcn8lztp4f4ktq3xfqkphdndntalz9h",
      "time_usec" : 1768860355879453,
      "visit_count" : 1,
      "title" : "Address: bc1q3d5ght0tcn8lztp4f4ktq3xfqkphdndntalz9h - mempool - Bitcoin Explorer"
    },
    {
      "url" : "https://mempool.space/address/bc1ql7w8m5hahpp6uvqht2dqfzs0uq3eylmpc7wcpy",
      "time_usec" : 1768860371630329,
      "visit_count" : 1,
      "title" : "Address: bc1ql7w8m5hahpp6uvqht2dqfzs0uq3eylmpc7wcpy - mempool - Bitcoin Explorer"
    },
    {
      "url" : "https://mempool.space/tx/221af34e08885cde20017788479d1100df308e4a945646aac51970f691d76190",
      "time_usec" : 1768860387820190,
      "visit_count" : 1,
      "title" : "Address: bc1ql7w8m5hahpp6uvqht2dqfzs0uq3eylmpc7wcpy - mempool - Bitcoin Explorer"
    },
    {
      "url" : "https://mempool.space/tx/221af34e08885cde20017788479d1100df308e4a945646aac51970f691d76190?mode=details",
      "time_usec" : 1768860387928259,
      "visit_count" : 1,
      "title" : "Transaction: 221af34e08885cde20017788479d1100df308e4a945646aac51970f691d76190 - mempool - Bitcoin Explorer"
    },
    {
      "url" : "https://mempool.space/mining/pool/antpool",
      "time_usec" : 1768860395868246,
      "visit_count" : 1,
      "title" : "AntPool - mempool - Bitcoin Explorer"
    },
    {
      "url" : "https://mempool.space/tx/da426f02830e3b1940045ad6faafd1e6ce0945d751c84890f5b470c1a6848b47",
      "time_usec" : 1768860441777950,
      "visit_count" : 1,
      "title" : "AntPool - mempool - Bitcoin Explorer"
    },
    {
      "url" : "https://mempool.space/tx/da426f02830e3b1940045ad6faafd1e6ce0945d751c84890f5b470c1a6848b47?mode=details",
      "time_usec" : 1768860441916442,
      "visit_count" : 1,
      "title" : "Transaction: da426f02830e3b1940045ad6faafd1e6ce0945d751c84890f5b470c1a6848b47 - mempool - Bitcoin Explorer"
    },
    {
      "url" : "https://mempool.space/docs/faq#what-are-sigops",
      "time_usec" : 1768860470714018,
      "visit_count" : 1,
      "title" : "FAQ - mempool - Bitcoin Explorer"
    },
    {
      "url" : "https://mempool.space/docs/faq#who-runs-this-website",
      "time_usec" : 1768860484654580,
      "visit_count" : 1,
      "title" : "FAQ - mempool - Bitcoin Explorer"
    },
    {
      "url" : "https://mempool.space/about",
      "time_usec" : 1768860489443994,
      "visit_count" : 1,
      "title" : "About - mempool - Bitcoin Explorer"
    },
    {
      "url" : "https://github.com/mempool/mempool/commit/acbf188c9",
      "time_usec" : 1768860503962398,
      "visit_count" : 5,
      "title" : "Merge pull request #6218 from mempool/mononaut/freebsd-version · mempool/mempool@acbf188 · GitHub"
    },
    {
      "url" : "https://github.com/mempool",
      "time_usec" : 1768860563557251,
      "visit_count" : 2,
      "title" : "mempool · GitHub"
    },
    {
      "url" : "https://github.com/mempool/mempool",
      "time_usec" : 1768860571402037,
      "visit_count" : 2,
      "title" : "GitHub - mempool/mempool: Explore the full Bitcoin ecosystem with mempool.space, or be your own explorer and self-host your own instance with one-click installation on popular Raspberry Pi fullnode distros including Umbrel, Raspiblitz, Start9, and more!"
    },
    {
      "url" : "https://github.com/mempool/mempool?tab=readme-ov-file",
      "time_usec" : 1768860586858136,
      "visit_count" : 1,
      "title" : "GitHub - mempool/mempool: Explore the full Bitcoin ecosystem with mempool.space, or be your own explorer and self-host your own instance with one-click installation on popular Raspberry Pi fullnode distros including Umbrel, Raspiblitz, Start9, and more!"
    },
    {
      "url" : "https://github.com/fort-nix/nix-bitcoin/blob/a1eacce6768ca4894f365af8f79be5bbd594e1c3/examples/configuration.nix#L129",
      "time_usec" : 1768860588114374,
      "visit_count" : 1,
      "title" : "nix-bitcoin/examples/configuration.nix at a1eacce6768ca4894f365af8f79be5bbd594e1c3 · fort-nix/nix-bitcoin · GitHub"
    },
    {
      "url" : "https://github.com/fort-nix/nix-bitcoin/blob/a1eacce6768ca4894f365af8f79be5bbd594e1c3/examples/configuration.nix",
      "time_usec" : 1768860588463753,
      "visit_count" : 3,
      "title" : "nix-bitcoin/examples/configuration.nix at a1eacce6768ca4894f365af8f79be5bbd594e1c3 · fort-nix/nix-bitcoin · GitHub"
    },
    {
      "url" : "https://github.com/fort-nix/nix-bitcoin/tree/a1eacce6768ca4894f365af8f79be5bbd594e1c3",
      "time_usec" : 1768860612696589,
      "visit_count" : 2,
      "title" : "GitHub - fort-nix/nix-bitcoin at a1eacce6768ca4894f365af8f79be5bbd594e1c3"
    },
    {
      "url" : "https://github.com/fort-nix/nix-bitcoin/tree/a1eacce6768ca4894f365af8f79be5bbd594e1c3?tab=readme-ov-file",
      "time_usec" : 1768860635987980,
      "visit_count" : 1,
      "title" : "GitHub - fort-nix/nix-bitcoin at a1eacce6768ca4894f365af8f79be5bbd594e1c3"
    },
    {
      "url" : "https://github.com/fort-nix/nix-bitcoin/blob/a1eacce6768ca4894f365af8f79be5bbd594e1c3/SECURITY.md#nix-bitcoin-security-fund",
      "time_usec" : 1768860636636904,
      "visit_count" : 1,
      "title" : "nix-bitcoin/SECURITY.md at a1eacce6768ca4894f365af8f79be5bbd594e1c3 · fort-nix/nix-bitcoin · GitHub"
    },
    {
      "url" : "https://mempool.nixbitcoin.org/address/bc1qrpnz05n0yznaj6yw82wy8dhwuqz86s87vdlhq4cu92fus9qal25s555wsy",
      "time_usec" : 1768860653695535,
      "visit_count" : 2,
      "title" : "Address: bc1qrpnz05n0yznaj6yw82wy8dhwuqz86s87vdlhq4cu92fus9qal25s555wsy - mempool - Bitcoin Explorer"
    },
    {
      "url" : "https://github.com/fort-nix/nix-bitcoin/blob/a1eacce6768ca4894f365af8f79be5bbd594e1c3/SECURITY.md#user-content-fnref-1-3-0176327da543df399d14a9338e4286e8",
      "time_usec" : 1768860719236513,
      "visit_count" : 1,
      "title" : "nix-bitcoin/SECURITY.md at a1eacce6768ca4894f365af8f79be5bbd594e1c3 · fort-nix/nix-bitcoin · GitHub"
    },
    {
      "url" : "https://github.com/fort-nix/nix-bitcoin/blob/a1eacce6768ca4894f365af8f79be5bbd594e1c3/SECURITY.md#user-content-fn-1-0176327da543df399d14a9338e4286e8",
      "time_usec" : 1768860720792455,
      "visit_count" : 2,
      "title" : "nix-bitcoin/SECURITY.md at a1eacce6768ca4894f365af8f79be5bbd594e1c3 · fort-nix/nix-bitcoin · GitHub"
    },
    {
      "url" : "https://github.com/fort-nix/nix-bitcoin/blob/a1eacce6768ca4894f365af8f79be5bbd594e1c3/SECURITY.md#user-content-fnref-1-4-0176327da543df399d14a9338e4286e8",
      "time_usec" : 1768860721943269,
      "visit_count" : 2,
      "title" : "nix-bitcoin/SECURITY.md at a1eacce6768ca4894f365af8f79be5bbd594e1c3 · fort-nix/nix-bitcoin · GitHub"
    },
    {
      "url" : "https://github.com/fort-nix/nix-bitcoin/blob/a1eacce6768ca4894f365af8f79be5bbd594e1c3/SECURITY.md",
      "time_usec" : 1768860721953032,
      "visit_count" : 8,
      "title" : "nix-bitcoin/SECURITY.md at a1eacce6768ca4894f365af8f79be5bbd594e1c3 · fort-nix/nix-bitcoin · GitHub"
    },
    {
      "url" : "https://en.wikipedia.org/wiki/Coordinated_vulnerability_disclosure",
      "time_usec" : 1768860723811533,
      "visit_count" : 1,
      "title" : "Coordinated vulnerability disclosure - Wikipedia"
    },
    {
      "url" : "https://en.wikipedia.org/wiki/MD5",
      "time_usec" : 1768860797385612,
      "visit_count" : 1,
      "title" : "MD5 - Wikipedia"
    },
    {
      "url" : "https://en.wikipedia.org/wiki/The_quick_brown_fox_jumps_over_the_lazy_dog",
      "time_usec" : 1768860873471271,
      "visit_count" : 1,
      "title" : "The quick brown fox jumps over the lazy dog - Wikipedia"
    },
    {
      "url" : "https://en.wikipedia.org/wiki/Teleprinter",
      "time_usec" : 1768860918550245,
      "visit_count" : 1,
      "title" : "Teleprinter - Wikipedia"
    },
    {
      "url" : "https://en.wikipedia.org/wiki/Operating_system",
      "time_usec" : 1768860971853036,
      "visit_count" : 1,
      "title" : "Operating system - Wikipedia"
    },
    {
      "url" : "https://en.wikipedia.org/wiki/Cloud_computing",
      "time_usec" : 1768860988579344,
      "visit_count" : 1,
      "title" : "Cloud computing - Wikipedia"
    },
    {
      "url" : "https://en.wikipedia.org/wiki/Identity_management_systems",
      "time_usec" : 1768861020318308,
      "visit_count" : 1,
      "title" : "Identity and access management - Wikipedia"
    },
    {
      "url" : "https://en.wikipedia.org/wiki/Identity_and_access_management#Management_systems",
      "time_usec" : 1768861020772937,
      "visit_count" : 1,
      "title" : "Identity and access management - Wikipedia"
    },
    {
      "url" : "https://modelcontextprotocol.uo/",
      "time_usec" : 1768870407606917,
      "visit_count" : 1,
      "title" : "Can’t Open Page",
      "latest_visit_was_load_failure" : true
    },
    {
      "url" : "https://medium.com/@markwkiehl/deploy-your-custom-mcp-ai-tool-to-cloud-run-a4d443821e67%0A",
      "time_usec" : 1768870539561213,
      "visit_count" : 2,
      "title" : "Medium"
    },
    {
      "url" : "https://medium.com/",
      "time_usec" : 1768870545291273,
      "visit_count" : 1,
      "title" : "Medium: Read and write stories."
    },
    {
      "url" : "https://www.apple.com/shop/xc/accessories/homekit?cid=APP-US-Home-Getting_Started-List",
      "time_usec" : 1768879338091524,
      "visit_count" : 1,
      "destination_url" : "https://www.apple.com/shop/accessories/all/homekit?cid=APP-US-Home-Getting_Started-List",
      "destination_time_usec" : 1768879338092011
    },
    {
      "url" : "https://www.apple.com/shop/accessories/all/homekit?cid=APP-US-Home-Getting_Started-List",
      "time_usec" : 1768879338092011,
      "visit_count" : 1,
      "title" : "Smart Home Accessories - All Accessories - Apple",
      "source_url" : "https://www.apple.com/shop/xc/accessories/homekit?cid=APP-US-Home-Getting_Started-List",
      "source_time_usec" : 1768879338091524
    },
    {
      "url" : "https://routinehub.co/shortcut/21828?__cf_chl_rt_tk=E160fZpFgeyGXKdl52uvPqXpNurTWDrb7N5dTHQgX2M-1768879596-1.0.1.1-5Jm8FsH_ApbbVrHOgpH_XwpA.wlOriW9drIG9Wqc4l4",
      "time_usec" : 1768879599824087,
      "visit_count" : 1,
      "title" : "Just a moment...",
      "latest_visit_was_load_failure" : true
    },
    {
      "url" : "https://routinehub.co/shortcut/21828",
      "time_usec" : 1768879600274215,
      "visit_count" : 2,
      "title" : "Just a moment...",
      "latest_visit_was_load_failure" : true
    },
    {
      "url" : "https://routinehub.co/shortcut/21828?__cf_chl_tk=E160fZpFgeyGXKdl52uvPqXpNurTWDrb7N5dTHQgX2M-1768879596-1.0.1.1-5Jm8FsH_ApbbVrHOgpH_XwpA.wlOriW9drIG9Wqc4l4",
      "time_usec" : 1768879611046534,
      "visit_count" : 1,
      "title" : "Just a moment...",
      "latest_visit_was_load_failure" : true
    },
    {
      "url" : "https://routinehub.co/shortcut/21828/",
      "time_usec" : 1768879620556107,
      "visit_count" : 1,
      "title" : "RoutineHub • Grok AI Chat"
    },
    {
      "url" : "https://routinehub.co/shortcut/21828/#/login",
      "time_usec" : 1768879660258093,
      "visit_count" : 1,
      "title" : "RoutineHub • Grok AI Chat"
    },
    {
      "url" : "https://routinehub.co/shortcut/21828/#google_vignette",
      "time_usec" : 1768879670490402,
      "visit_count" : 1,
      "title" : "RoutineHub • Grok AI Chat"
    },
    {
      "url" : "https://routinehub.co/shortcut/21828/#",
      "time_usec" : 1768879672581952,
      "visit_count" : 1,
      "title" : "RoutineHub • Grok AI Chat"
    },
    {
      "url" : "https://routinehub.co/shortcut/19362/#/login",
      "time_usec" : 1768879859074681,
      "visit_count" : 1,
      "title" : "RoutineHub • AI Store"
    },
    {
      "url" : "https://routinehub.co/shortcut/19362/#",
      "time_usec" : 1768879878129499,
      "visit_count" : 1,
      "title" : "RoutineHub • AI Store"
    },
    {
      "url" : "https://routinehub.co/shortcut/19362/#/register",
      "time_usec" : 1768879883270290,
      "visit_count" : 2,
      "title" : "RoutineHub • AI Store"
    },
    {
      "url" : "https://accounts.google.com/o/oauth2/v2/auth?client_id=981472293333-ch6t9163ojqshcddj59ovqk5ialpdh9m.apps.googleusercontent.com&redirect_uri=https%3A%2F%2Fauth.routinehub.co%2Foauth2%2Fidpresponse&scope=openid+email+profile&response_type=code&state=H4sIAAAAAAAAAFWQW3ObMBCF_4uerQASAsybUzdOUieOpzE4bjIeIcTFQYhIghmn0__edacP7dOenfPtZc5PxFGKRosltw4Hx-VkX8S1ODygGSrAWWlddxIaAQ07EULZh3F9N7LeFK0NlAvViXMASgAa5wabep7Ro2t72YzFldBe_WeHx4fB6EliocvLQgn8X1n9e6hG6Q-kB9m35YVSvO2gwmjVgv82Qw3Qr6-ebbRxYnQggzmNCFTg3sGszZZmVV0VIrgXi9z_-nmf2J4NZUv1Ycnk2W_Zw4Ycb05m_dlNTWQYxbtwjZWuDptlw8Jc7bb7_VCLvhwy98jZzfmLUjR_Tq55bsy5LbZqwfLF3cKO4ltjv3P8mOla8LXbtPH6YOZMRC949TE-3a0Iv93jeU2eg2DavWdHeZufO7fMZC5C-LiDj_nomqv_QgNDoTSIoySJ50mSQAIorXhn5QwZmIgopZwUFJOK-zisSh8ntCA4ikkYJTGlvn-Jb4Iw3379BhPqxMzlAQAA.H4sIAAAAAAAAAHu4c-enfnErUz2Fd2t7mJqeSq831v5XxOvy9vmftV8CHTQANlZ6rCAAAAA.4&access_type=offline",
      "time_usec" : 1768879889811035,
      "visit_count" : 1,
      "destination_url" : "https://accounts.google.com/v3/signin/accountchooser?access_type=offline&client_id=981472293333-ch6t9163ojqshcddj59ovqk5ialpdh9m.apps.googleusercontent.com&redirect_uri=https%3A%2F%2Fauth.routinehub.co%2Foauth2%2Fidpresponse&response_type=code&scope=openid+email+profile&state=H4sIAAAAAAAAAFWQW3ObMBCF_4uerQASAsybUzdOUieOpzE4bjIeIcTFQYhIghmn0__edacP7dOenfPtZc5PxFGKRosltw4Hx-VkX8S1ODygGSrAWWlddxIaAQ07EULZh3F9N7LeFK0NlAvViXMASgAa5wabep7Ro2t72YzFldBe_WeHx4fB6EliocvLQgn8X1n9e6hG6Q-kB9m35YVSvO2gwmjVgv82Qw3Qr6-ebbRxYnQggzmNCFTg3sGszZZmVV0VIrgXi9z_-nmf2J4NZUv1Ycnk2W_Zw4Ycb05m_dlNTWQYxbtwjZWuDptlw8Jc7bb7_VCLvhwy98jZzfmLUjR_Tq55bsy5LbZqwfLF3cKO4ltjv3P8mOla8LXbtPH6YOZMRC949TE-3a0Iv93jeU2eg2DavWdHeZufO7fMZC5C-LiDj_nomqv_QgNDoTSIoySJ50mSQAIorXhn5QwZmIgopZwUFJOK-zisSh8ntCA4ikkYJTGlvn-Jb4Iw3379BhPqxMzlAQAA.H4sIAAAAAAAAAHu4c-enfnErUz2Fd2t7mJqeSq831v5XxOvy9vmftV8CHTQANlZ6rCAAAAA.4&dsh=S1443459215%3A1768879889705724&o2v=2&service=lso&flowName=GeneralOAuthFlow&opparams=%253F&continue=https%3A%2F%2Faccounts.google.com%2Fsignin%2Foauth%2Fconsent%3Fauthuser%3Dunknown%26part%3DAJi8hAOrfGdNnOaj556AdPAshLr6yIq7-JZMSklCHsstf7xKRzf5Gj-L8QTzWLQF-JntxfKI-MpZMG8p_t3sF-qy92XPDJ-scDYzjtGtLKWu9SPJ9nbUZXkSIm27VHTZv4CmeEclHkI6wlTb_200tZYb1FFA4sUS07fnwLlPjLjngNt_OoKwwBghVeyhN6e4XorxHl3R3xmf4x3tPHTOiTjRtdg2rZOyz0xb9OKHnI_e3-dKeiIJlInvy3CuWmCmn0-k7-na81-rZMSn448qae7G0LU0H4fbPBd4ckoFoW2J-6dyg3nKLOOwdl5g4UdCJHObdnFxaGY1ioK7Pm6UAHnnqrz58yXr8hRQGb5UnDjIHVQiHtcFQYzm5XRx3EbGTJ4oJKca-NC-RxRpHICYfBJe9FibMNHNYqB8aoHxma3DFlFeRHvPJp2CjIpD_Q49mhVFUj6q0TIxkQffjsIE46_LKfojFguWcg%26flowName%3DGeneralOAuthFlow%26as%3DS1443459215%253A1768879889705724%26client_id%3D981472293333-ch6t9163ojqshcddj59ovqk5ialpdh9m.apps.googleusercontent.com%26requestPath%3D%252Fsignin%252Foauth%252Fconsent%23&app_domain=https%3A%2F%2Fauth.routinehub.co",
      "destination_time_usec" : 1768879889811524
    },
    {
      "url" : "https://accounts.google.com/v3/signin/accountchooser?access_type=offline&client_id=981472293333-ch6t9163ojqshcddj59ovqk5ialpdh9m.apps.googleusercontent.com&redirect_uri=https%3A%2F%2Fauth.routinehub.co%2Foauth2%2Fidpresponse&response_type=code&scope=openid+email+profile&state=H4sIAAAAAAAAAFWQW3ObMBCF_4uerQASAsybUzdOUieOpzE4bjIeIcTFQYhIghmn0__edacP7dOenfPtZc5PxFGKRosltw4Hx-VkX8S1ODygGSrAWWlddxIaAQ07EULZh3F9N7LeFK0NlAvViXMASgAa5wabep7Ro2t72YzFldBe_WeHx4fB6EliocvLQgn8X1n9e6hG6Q-kB9m35YVSvO2gwmjVgv82Qw3Qr6-ebbRxYnQggzmNCFTg3sGszZZmVV0VIrgXi9z_-nmf2J4NZUv1Ycnk2W_Zw4Ycb05m_dlNTWQYxbtwjZWuDptlw8Jc7bb7_VCLvhwy98jZzfmLUjR_Tq55bsy5LbZqwfLF3cKO4ltjv3P8mOla8LXbtPH6YOZMRC949TE-3a0Iv93jeU2eg2DavWdHeZufO7fMZC5C-LiDj_nomqv_QgNDoTSIoySJ50mSQAIorXhn5QwZmIgopZwUFJOK-zisSh8ntCA4ikkYJTGlvn-Jb4Iw3379BhPqxMzlAQAA.H4sIAAAAAAAAAHu4c-enfnErUz2Fd2t7mJqeSq831v5XxOvy9vmftV8CHTQANlZ6rCAAAAA.4&dsh=S1443459215%3A1768879889705724&o2v=2&service=lso&flowName=GeneralOAuthFlow&opparams=%253F&continue=https%3A%2F%2Faccounts.google.com%2Fsignin%2Foauth%2Fconsent%3Fauthuser%3Dunknown%26part%3DAJi8hAOrfGdNnOaj556AdPAshLr6yIq7-JZMSklCHsstf7xKRzf5Gj-L8QTzWLQF-JntxfKI-MpZMG8p_t3sF-qy92XPDJ-scDYzjtGtLKWu9SPJ9nbUZXkSIm27VHTZv4CmeEclHkI6wlTb_200tZYb1FFA4sUS07fnwLlPjLjngNt_OoKwwBghVeyhN6e4XorxHl3R3xmf4x3tPHTOiTjRtdg2rZOyz0xb9OKHnI_e3-dKeiIJlInvy3CuWmCmn0-k7-na81-rZMSn448qae7G0LU0H4fbPBd4ckoFoW2J-6dyg3nKLOOwdl5g4UdCJHObdnFxaGY1ioK7Pm6UAHnnqrz58yXr8hRQGb5UnDjIHVQiHtcFQYzm5XRx3EbGTJ4oJKca-NC-RxRpHICYfBJe9FibMNHNYqB8aoHxma3DFlFeRHvPJp2CjIpD_Q49mhVFUj6q0TIxkQffjsIE46_LKfojFguWcg%26flowName%3DGeneralOAuthFlow%26as%3DS1443459215%253A1768879889705724%26client_id%3D981472293333-ch6t9163ojqshcddj59ovqk5ialpdh9m.apps.googleusercontent.com%26requestPath%3D%252Fsignin%252Foauth%252Fconsent%23&app_domain=https%3A%2F%2Fauth.routinehub.co",
      "time_usec" : 1768879890745055,
      "visit_count" : 2,
      "title" : "Sign in – Google accounts"
    },
    {
      "url" : "https://accounts.google.com/ServiceLogin?access_type=offline&app_domain=https%3A%2F%2Fauth.routinehub.co&authuser=0&client_id=981472293333-ch6t9163ojqshcddj59ovqk5ialpdh9m.apps.googleusercontent.com&continue=https%3A%2F%2Faccounts.google.com%2Fsignin%2Foauth%2Fconsent%3Fauthuser%3Dunknown%26part%3DAJi8hAOrfGdNnOaj556AdPAshLr6yIq7-JZMSklCHsstf7xKRzf5Gj-L8QTzWLQF-JntxfKI-MpZMG8p_t3sF-qy92XPDJ-scDYzjtGtLKWu9SPJ9nbUZXkSIm27VHTZv4CmeEclHkI6wlTb_200tZYb1FFA4sUS07fnwLlPjLjngNt_OoKwwBghVeyhN6e4XorxHl3R3xmf4x3tPHTOiTjRtdg2rZOyz0xb9OKHnI_e3-dKeiIJlInvy3CuWmCmn0-k7-na81-rZMSn448qae7G0LU0H4fbPBd4ckoFoW2J-6dyg3nKLOOwdl5g4UdCJHObdnFxaGY1ioK7Pm6UAHnnqrz58yXr8hRQGb5UnDjIHVQiHtcFQYzm5XRx3EbGTJ4oJKca-NC-RxRpHICYfBJe9FibMNHNYqB8aoHxma3DFlFeRHvPJp2CjIpD_Q49mhVFUj6q0TIxkQffjsIE46_LKfojFguWcg%26flowName%3DGeneralOAuthFlow%26as%3DS1443459215%253A1768879889705724%26client_id%3D981472293333-ch6t9163ojqshcddj59ovqk5ialpdh9m.apps.googleusercontent.com%26requestPath%3D%252Fsignin%252Foauth%252Fconsent%23&dsh=S1443459215%3A1768879889705724&flowName=GeneralOAuthFlow&o2v=2&opparams=%253F&passive=true&redirect_uri=https%3A%2F%2Fauth.routinehub.co%2Foauth2%2Fidpresponse&response_type=code&sacu=1&scope=openid%20email%20profile&service=lso&state=H4sIAAAAAAAAAFWQW3ObMBCF_4uerQASAsybUzdOUieOpzE4bjIeIcTFQYhIghmn0__edacP7dOenfPtZc5PxFGKRosltw4Hx-VkX8S1ODygGSrAWWlddxIaAQ07EULZh3F9N7LeFK0NlAvViXMASgAa5wabep7Ro2t72YzFldBe_WeHx4fB6EliocvLQgn8X1n9e6hG6Q-kB9m35YVSvO2gwmjVgv82Qw3Qr6-ebbRxYnQggzmNCFTg3sGszZZmVV0VIrgXi9z_-nmf2J4NZUv1Ycnk2W_Zw4Ycb05m_dlNTWQYxbtwjZWuDptlw8Jc7bb7_VCLvhwy98jZzfmLUjR_Tq55bsy5LbZqwfLF3cKO4ltjv3P8mOla8LXbtPH6YOZMRC949TE-3a0Iv93jeU2eg2DavWdHeZufO7fMZC5C-LiDj_nomqv_QgNDoTSIoySJ50mSQAIorXhn5QwZmIgopZwUFJOK-zisSh8ntCA4ikkYJTGlvn-Jb4Iw3379BhPqxMzlAQAA.H4sIAAAAAAAAAHu4c-enfnErUz2Fd2t7mJqeSq831v5XxOvy9vmftV8CHTQANlZ6rCAAAAA.4",
      "time_usec" : 1768879894869051,
      "visit_count" : 1,
      "destination_url" : "https://accounts.google.com/signin/oauth/id?authuser=0&part=AJi8hAPjlmlqg4ncULwRBiR6PVmle4sTdHOzzzaHo5BDw0DplI8UHv9VA0qi7OO3WZxnZu6z2kviIVVjOpPGOKp_oOh8LeXA0AjspiSTKJH_bO4nUFwPHCrwsQqV9g7pL3DZ4gVQkylj07gNaBSlTsK6kkpxH616xeuQZve3SRO-LbbOxx2hkYgtyVEaPgP43Q68hTYeCWaFYP3__zeAS1JKJXYwbDg9buQBD9WE52xWPlcWciPIuG4lj5WKIyDx03SuK8QylvIYJUOiaNaawjgkCKEIqpnzSRU1oRn9ShBTIc3OAp31GlVd8e7I0JQhQWyyXr3828D0b1P0v9u4CtIxw9E1Y6AwmHIFZE5pKakS1zjQAkyMMmxmhPid4V941YkHSlV7X8hini-uN1zm3f8ZcUoaAg1bLngUoijxlu9xMOCpIXNSHiC6L43lnupxXd_zVxlzTri5OKYQTwfjWw7HbFl_v0KkZEZspOOe-2jxibiLsxAHfv0-HLOjSd31iyKF2joTLkeb3XfkqRgaqbZXWpZeK1WvYAGlMs5GiJot7ZXJuUjISgakLCwhCIqLO-4bISb98HmtLRtnaT1-Pe6haS2yFd2n1ypeaWJ2UCQSSz62LPRd_G9cwv79wLYwdEwVHZKPDsEkovVwPvfAialzc-PymJzYfuJZqCgQR2YTAxf1PqThgB1lGym5W-pU4cQfhw4Xm1acaSBEaJkLL2vK1C9Txg0o_HybeSSG0Vi7s82JpNZA6oVyAxmEZ33cQc1Aru0zbJ4gtBhcXJJLwa6eajUGoIqPJt5mNeYYC0ZPZO-ZNx_hx5cbDjwRwhbQSu0nqvgmlLxDR_qr8H1PCrwzN6RQPN-v7g&flowName=GeneralOAuthFlow&as=S1443459215%3A1768879889705724&client_id=981472293333-ch6t9163ojqshcddj59ovqk5ialpdh9m.apps.googleusercontent.com&rapt=AEjHL4OuCkOkoRAKeHZ1R07xeZpfbwwQu_PQz0orQGQRjmV1GaoS6vs8-TOHRgyBbWPowzLqX3BWBun4cgZoMxNwI36aDfIt-HWr8QeFNkT8lOdFKITm08Y&requestPath=%2Fsignin%2Foauth%2Fconsent#",
      "destination_time_usec" : 1768879894869495
    },
    {
      "url" : "https://accounts.google.com/signin/oauth/id?authuser=0&part=AJi8hAPjlmlqg4ncULwRBiR6PVmle4sTdHOzzzaHo5BDw0DplI8UHv9VA0qi7OO3WZxnZu6z2kviIVVjOpPGOKp_oOh8LeXA0AjspiSTKJH_bO4nUFwPHCrwsQqV9g7pL3DZ4gVQkylj07gNaBSlTsK6kkpxH616xeuQZve3SRO-LbbOxx2hkYgtyVEaPgP43Q68hTYeCWaFYP3__zeAS1JKJXYwbDg9buQBD9WE52xWPlcWciPIuG4lj5WKIyDx03SuK8QylvIYJUOiaNaawjgkCKEIqpnzSRU1oRn9ShBTIc3OAp31GlVd8e7I0JQhQWyyXr3828D0b1P0v9u4CtIxw9E1Y6AwmHIFZE5pKakS1zjQAkyMMmxmhPid4V941YkHSlV7X8hini-uN1zm3f8ZcUoaAg1bLngUoijxlu9xMOCpIXNSHiC6L43lnupxXd_zVxlzTri5OKYQTwfjWw7HbFl_v0KkZEZspOOe-2jxibiLsxAHfv0-HLOjSd31iyKF2joTLkeb3XfkqRgaqbZXWpZeK1WvYAGlMs5GiJot7ZXJuUjISgakLCwhCIqLO-4bISb98HmtLRtnaT1-Pe6haS2yFd2n1ypeaWJ2UCQSSz62LPRd_G9cwv79wLYwdEwVHZKPDsEkovVwPvfAialzc-PymJzYfuJZqCgQR2YTAxf1PqThgB1lGym5W-pU4cQfhw4Xm1acaSBEaJkLL2vK1C9Txg0o_HybeSSG0Vi7s82JpNZA6oVyAxmEZ33cQc1Aru0zbJ4gtBhcXJJLwa6eajUGoIqPJt5mNeYYC0ZPZO-ZNx_hx5cbDjwRwhbQSu0nqvgmlLxDR_qr8H1PCrwzN6RQPN-v7g&flowName=GeneralOAuthFlow&as=S1443459215%3A1768879889705724&client_id=981472293333-ch6t9163ojqshcddj59ovqk5ialpdh9m.apps.googleusercontent.com&rapt=AEjHL4OuCkOkoRAKeHZ1R07xeZpfbwwQu_PQz0orQGQRjmV1GaoS6vs8-TOHRgyBbWPowzLqX3BWBun4cgZoMxNwI36aDfIt-HWr8QeFNkT8lOdFKITm08Y&requestPath=%2Fsignin%2Foauth%2Fconsent#",
      "time_usec" : 1768879895486923,
      "visit_count" : 2,
      "title" : "Sign in – Google accounts"
    },
    {
      "url" : "https://routinehub.co/shortcut/19362/?login-auth",
      "time_usec" : 1768879901045491,
      "visit_count" : 1,
      "title" : "RoutineHub • AI Store"
    },
    {
      "url" : "https://routinehub.co/shortcut/19362/",
      "time_usec" : 1768879901429919,
      "visit_count" : 2,
      "title" : "RoutineHub • AI Store"
    },
    {
      "url" : "https://www.icloud.com/shortcuts/c5b1e7ed26a440a4bc62804885c147d2",
      "time_usec" : 1768879927598333,
      "visit_count" : 1,
      "title" : "AI Store"
    },
    {
      "url" : "https://accounts.x.ai/sign-in",
      "time_usec" : 1768884951584110,
      "visit_count" : 2,
      "title" : "Accept Terms of Service | xAI Single-Sign On"
    },
    {
      "url" : "https://accounts.x.ai/accept-tos",
      "time_usec" : 1768884985564545,
      "visit_count" : 1,
      "title" : "Accept Terms of Service | xAI Single-Sign On"
    },
    {
      "url" : "https://accounts.x.ai/",
      "time_usec" : 1768885026435874,
      "visit_count" : 1,
      "destination_url" : "https://accounts.x.ai/account",
      "destination_time_usec" : 1768885026436005
    },
    {
      "url" : "https://accounts.x.ai/security/change-password",
      "time_usec" : 1768885035987609,
      "visit_count" : 1,
      "title" : "xAI Single-Sign On"
    },
    {
      "url" : "https://accounts.x.ai/security?message=password-updated",
      "time_usec" : 1768885049339866,
      "visit_count" : 2,
      "title" : "Your data | xAI Single-Sign On"
    },
    {
      "url" : "https://accounts.x.ai/data",
      "time_usec" : 1768885331353609,
      "visit_count" : 2,
      "title" : "Your data | xAI Single-Sign On"
    },
    {
      "url" : "https://accounts.x.ai/sessions",
      "time_usec" : 1768885334202524,
      "visit_count" : 2,
      "title" : "Your sessions | xAI Single-Sign On"
    },
    {
      "url" : "https://accounts.x.ai/security",
      "time_usec" : 1768885337987407,
      "visit_count" : 4,
      "title" : "Your data | xAI Single-Sign On"
    },
    {
      "url" : "https://accounts.google.com/o/oauth2/v2/auth?response_type=code&client_id=455662147616-fai32tqkrc0mqkouoe6l0suk287lkb1k.apps.googleusercontent.com&state=eyJ0b2tlbiI6IllHZ3QwMjdHMXNXRkl0d29rSTlRWXciLCJtZXRhZGF0YSI6eyJwcm9tcHRPbkR1cGxpY2F0ZUVtYWlsIjoiZmFsc2UiLCJpbnRlbnRpb24iOiJsaW5rLWFjY291bnQifX0&code_challenge=OEPTHIzZYn-UwHtxKYpnPx-VOrQ_ZXWe0SgthB-q0WQ&code_challenge_method=S256&redirect_uri=https%3A%2F%2Faccounts.x.ai%2Fexchange-token%2F&scope=https%3A%2F%2Fwww.googleapis.com%2Fauth%2Fuserinfo.email+https%3A%2F%2Fwww.googleapis.com%2Fauth%2Fuserinfo.profile&prompt=select_account",
      "time_usec" : 1768885351505526,
      "visit_count" : 1,
      "destination_url" : "https://accounts.google.com/v3/signin/accountchooser?client_id=455662147616-fai32tqkrc0mqkouoe6l0suk287lkb1k.apps.googleusercontent.com&code_challenge=OEPTHIzZYn-UwHtxKYpnPx-VOrQ_ZXWe0SgthB-q0WQ&code_challenge_method=S256&prompt=select_account&redirect_uri=https%3A%2F%2Faccounts.x.ai%2Fexchange-token%2F&response_type=code&scope=https%3A%2F%2Fwww.googleapis.com%2Fauth%2Fuserinfo.email+https%3A%2F%2Fwww.googleapis.com%2Fauth%2Fuserinfo.profile&state=eyJ0b2tlbiI6IllHZ3QwMjdHMXNXRkl0d29rSTlRWXciLCJtZXRhZGF0YSI6eyJwcm9tcHRPbkR1cGxpY2F0ZUVtYWlsIjoiZmFsc2UiLCJpbnRlbnRpb24iOiJsaW5rLWFjY291bnQifX0&dsh=S-1962315646%3A1768885350628997&o2v=2&service=lso&flowName=GeneralOAuthFlow&opparams=%253F&continue=https%3A%2F%2Faccounts.google.com%2Fsignin%2Foauth%2Fconsent%3Fauthuser%3Dunknown%26part%3DAJi8hANTZnUhuwNsVWh3-MnLcsFMdhnULqEniHZBNyKB99hyn3p-4hZsxpNJOdZd3Lvvs9d0Yqpw0dCpC5zjGMaxr0vge9Vc8y9BuUiCJzmv1xwF1Y0SxWPqjQz7hqhLb671Mbjdjf2IEY6aazdt1IENVRAMBGDViWPXAfahCUrJAbB2Hz4KNRGoFs3N36Xw9wxmH6wyUj0uniW_-PjPFqba5U9Jopxl39BUWm5Wl2m9PTuooWIOtUPJ7OvJchbuUxtKYwL4KR59cH98JXvOrskTBGdrnr-EhW49cN0WDz6fopFVxnLmAHGQCxF73i9NfMLv0EvB585DezttH1ee6mZ_4ztMMQrpykRGodPNYSe0UoXU2EqDtnrfBA2u4Emxko6I_7bZuY3OQ69LZTpbOklUEgDu5pKKVZblcZaToU0gzsWeM3IaTVI0QYa1z2GKl-sheemj0wPaAdc2v1IPHAIcHUHVD4zbwg%26flowName%3DGeneralOAuthFlow%26as%3DS-1962315646%253A1768885350628997%26client_id%3D455662147616-fai32tqkrc0mqkouoe6l0suk287lkb1k.apps.googleusercontent.com%26requestPath%3D%252Fsignin%252Foauth%252Fconsent%23&app_domain=https%3A%2F%2Faccounts.x.ai",
      "destination_time_usec" : 1768885351505871
    },
    {
      "url" : "https://accounts.google.com/v3/signin/accountchooser?client_id=455662147616-fai32tqkrc0mqkouoe6l0suk287lkb1k.apps.googleusercontent.com&code_challenge=OEPTHIzZYn-UwHtxKYpnPx-VOrQ_ZXWe0SgthB-q0WQ&code_challenge_method=S256&prompt=select_account&redirect_uri=https%3A%2F%2Faccounts.x.ai%2Fexchange-token%2F&response_type=code&scope=https%3A%2F%2Fwww.googleapis.com%2Fauth%2Fuserinfo.email+https%3A%2F%2Fwww.googleapis.com%2Fauth%2Fuserinfo.profile&state=eyJ0b2tlbiI6IllHZ3QwMjdHMXNXRkl0d29rSTlRWXciLCJtZXRhZGF0YSI6eyJwcm9tcHRPbkR1cGxpY2F0ZUVtYWlsIjoiZmFsc2UiLCJpbnRlbnRpb24iOiJsaW5rLWFjY291bnQifX0&dsh=S-1962315646%3A1768885350628997&o2v=2&service=lso&flowName=GeneralOAuthFlow&opparams=%253F&continue=https%3A%2F%2Faccounts.google.com%2Fsignin%2Foauth%2Fconsent%3Fauthuser%3Dunknown%26part%3DAJi8hANTZnUhuwNsVWh3-MnLcsFMdhnULqEniHZBNyKB99hyn3p-4hZsxpNJOdZd3Lvvs9d0Yqpw0dCpC5zjGMaxr0vge9Vc8y9BuUiCJzmv1xwF1Y0SxWPqjQz7hqhLb671Mbjdjf2IEY6aazdt1IENVRAMBGDViWPXAfahCUrJAbB2Hz4KNRGoFs3N36Xw9wxmH6wyUj0uniW_-PjPFqba5U9Jopxl39BUWm5Wl2m9PTuooWIOtUPJ7OvJchbuUxtKYwL4KR59cH98JXvOrskTBGdrnr-EhW49cN0WDz6fopFVxnLmAHGQCxF73i9NfMLv0EvB585DezttH1ee6mZ_4ztMMQrpykRGodPNYSe0UoXU2EqDtnrfBA2u4Emxko6I_7bZuY3OQ69LZTpbOklUEgDu5pKKVZblcZaToU0gzsWeM3IaTVI0QYa1z2GKl-sheemj0wPaAdc2v1IPHAIcHUHVD4zbwg%26flowName%3DGeneralOAuthFlow%26as%3DS-1962315646%253A1768885350628997%26client_id%3D455662147616-fai32tqkrc0mqkouoe6l0suk287lkb1k.apps.googleusercontent.com%26requestPath%3D%252Fsignin%252Foauth%252Fconsent%23&app_domain=https%3A%2F%2Faccounts.x.ai",
      "time_usec" : 1768885351505871,
      "visit_count" : 1,
      "title" : "Sign in – Google accounts",
      "source_url" : "https://accounts.google.com/o/oauth2/v2/auth?response_type=code&client_id=455662147616-fai32tqkrc0mqkouoe6l0suk287lkb1k.apps.googleusercontent.com&state=eyJ0b2tlbiI6IllHZ3QwMjdHMXNXRkl0d29rSTlRWXciLCJtZXRhZGF0YSI6eyJwcm9tcHRPbkR1cGxpY2F0ZUVtYWlsIjoiZmFsc2UiLCJpbnRlbnRpb24iOiJsaW5rLWFjY291bnQifX0&code_challenge=OEPTHIzZYn-UwHtxKYpnPx-VOrQ_ZXWe0SgthB-q0WQ&code_challenge_method=S256&redirect_uri=https%3A%2F%2Faccounts.x.ai%2Fexchange-token%2F&scope=https%3A%2F%2Fwww.googleapis.com%2Fauth%2Fuserinfo.email+https%3A%2F%2Fwww.googleapis.com%2Fauth%2Fuserinfo.profile&prompt=select_account",
      "source_time_usec" : 1768885351505526
    },
    {
      "url" : "https://accounts.google.com/v3/signin/accountchooser?client_id=455662147616-fai32tqkrc0mqkouoe6l0suk287lkb1k.apps.googleusercontent.com&redirect_uri=https%3A%2F%2Faccounts.x.ai%2Fexchange-token%2F&response_type=code&scope=https%3A%2F%2Fwww.googleapis.com%2Fauth%2Fuserinfo.email+https%3A%2F%2Fwww.googleapis.com%2Fauth%2Fuserinfo.profile&state=eyJ0b2tlbiI6IllHZ3QwMjdHMXNXRkl0d29rSTlRWXciLCJtZXRhZGF0YSI6eyJwcm9tcHRPbkR1cGxpY2F0ZUVtYWlsIjoiZmFsc2UiLCJpbnRlbnRpb24iOiJsaW5rLWFjY291bnQifX0&dsh=S-1962315646%3A1768885350628997&o2v=2&service=lso&flowName=GeneralOAuthFlow&opparams=%253F&continue=https%3A%2F%2Faccounts.google.com%2Fsignin%2Foauth%2Fconsent%3Fauthuser%3Dunknown%26part%3DAJi8hANTZnUhuwNsVWh3-MnLcsFMdhnULqEniHZBNyKB99hyn3p-4hZsxpNJOdZd3Lvvs9d0Yqpw0dCpC5zjGMaxr0vge9Vc8y9BuUiCJzmv1xwF1Y0SxWPqjQz7hqhLb671Mbjdjf2IEY6aazdt1IENVRAMBGDViWPXAfahCUrJAbB2Hz4KNRGoFs3N36Xw9wxmH6wyUj0uniW_-PjPFqba5U9Jopxl39BUWm5Wl2m9PTuooWIOtUPJ7OvJchbuUxtKYwL4KR59cH98JXvOrskTBGdrnr-EhW49cN0WDz6fopFVxnLmAHGQCxF73i9NfMLv0EvB585DezttH1ee6mZ_4ztMMQrpykRGodPNYSe0UoXU2EqDtnrfBA2u4Emxko6I_7bZuY3OQ69LZTpbOklUEgDu5pKKVZblcZaToU0gzsWeM3IaTVI0QYa1z2GKl-sheemj0wPaAdc2v1IPHAIcHUHVD4zbwg%26flowName%3DGeneralOAuthFlow%26as%3DS-1962315646%253A1768885350628997%26client_id%3D455662147616-fai32tqkrc0mqkouoe6l0suk287lkb1k.apps.googleusercontent.com%26requestPath%3D%252Fsignin%252Foauth%252Fconsent%23&app_domain=https%3A%2F%2Faccounts.x.ai",
      "time_usec" : 1768885351749589,
      "visit_count" : 1,
      "title" : "Sign in – Google accounts"
    },
    {
      "url" : "https://accounts.google.com/ServiceLogin?app_domain=https%3A%2F%2Faccounts.x.ai&authuser=0&client_id=455662147616-fai32tqkrc0mqkouoe6l0suk287lkb1k.apps.googleusercontent.com&continue=https%3A%2F%2Faccounts.google.com%2Fsignin%2Foauth%2Fconsent%3Fauthuser%3Dunknown%26part%3DAJi8hANTZnUhuwNsVWh3-MnLcsFMdhnULqEniHZBNyKB99hyn3p-4hZsxpNJOdZd3Lvvs9d0Yqpw0dCpC5zjGMaxr0vge9Vc8y9BuUiCJzmv1xwF1Y0SxWPqjQz7hqhLb671Mbjdjf2IEY6aazdt1IENVRAMBGDViWPXAfahCUrJAbB2Hz4KNRGoFs3N36Xw9wxmH6wyUj0uniW_-PjPFqba5U9Jopxl39BUWm5Wl2m9PTuooWIOtUPJ7OvJchbuUxtKYwL4KR59cH98JXvOrskTBGdrnr-EhW49cN0WDz6fopFVxnLmAHGQCxF73i9NfMLv0EvB585DezttH1ee6mZ_4ztMMQrpykRGodPNYSe0UoXU2EqDtnrfBA2u4Emxko6I_7bZuY3OQ69LZTpbOklUEgDu5pKKVZblcZaToU0gzsWeM3IaTVI0QYa1z2GKl-sheemj0wPaAdc2v1IPHAIcHUHVD4zbwg%26flowName%3DGeneralOAuthFlow%26as%3DS-1962315646%253A1768885350628997%26client_id%3D455662147616-fai32tqkrc0mqkouoe6l0suk287lkb1k.apps.googleusercontent.com%26requestPath%3D%252Fsignin%252Foauth%252Fconsent%23&dsh=S-1962315646%3A1768885350628997&flowName=GeneralOAuthFlow&o2v=2&opparams=%253F&passive=true&redirect_uri=https%3A%2F%2Faccounts.x.ai%2Fexchange-token%2F&response_type=code&sacu=1&scope=https%3A%2F%2Fwww.googleapis.com%2Fauth%2Fuserinfo.email%20https%3A%2F%2Fwww.googleapis.com%2Fauth%2Fuserinfo.profile&service=lso&state=eyJ0b2tlbiI6IllHZ3QwMjdHMXNXRkl0d29rSTlRWXciLCJtZXRhZGF0YSI6eyJwcm9tcHRPbkR1cGxpY2F0ZUVtYWlsIjoiZmFsc2UiLCJpbnRlbnRpb24iOiJsaW5rLWFjY291bnQifX0",
      "time_usec" : 1768885356787389,
      "visit_count" : 1,
      "destination_url" : "https://accounts.google.com/signin/oauth/id?authuser=0&part=AJi8hAPVeSxV0VJVKIx3M5UW3wQ-T4YxPVIFYOiJRuDQYLMb9Rx5ApHHhiY6ihOntxCgGaDpd-j1C0GPTlxJkZ-gyBwoqPtoyFo-XxdYEtKdES2Q9dHblImvRRls5YNOJwOxkWLc_uCQ1pGcsQFM-5IgXDRKVRISAi4Wp3lZCyPqANT624JqNlpW5RNV5Uvhg6UaCkkUeovlSd2jc0N-BlRBOUdIBg_Gn4Gs56AzcmPvU-u8Jw6dZWJzN0s5rUpAGVumSr3GNIKuRAefH-kYQae29RPPFfMD6hEVQMymm0jrDecMW-o16kPqvt5V8n44Iu2HcESGTz81FQ2pQ-rt3VTzznSl8Y6PGfI7Z1Z_8x3VG3czrfubgWHHOKGr8MTYTOz91xYScp7dQ_c4DROU2OyZAD9D69mie2eQ3HdxpNQw9DWLO6wu7Y-UaNwxNkSpIOjzjH_3rjvxFoARTTuewfqPguHtjOGFSxcPQ3xa-r93jPiiMKgzhFHoEOdN4DB1k3fOd-mcRmmEIjUWfj2qpdjTmMIh3N3uL4kHSaizqzqfq3VQ_E5UYfHxpFrm5MP0KnuOCuXpxzGlZrSLrNinvzf6nLEKtvRqR_dXuVQ20FTb2p3gVfRE16ArqlMXWnRISRShfQvK2piGuX9IJf0CrwxCylHWEf-s0fzSFiV1uqtUCWgrLavcGZE_vgk9QLz_o3JalPQF1BgMpDzc1-xb-8eGjBopDTB89tOTubJ5IO2twKPX76RL8q16ubWLmK0jIOHn6G4AfqKA977dGw69vh357rsu6k348LC0SjKk8wYwF8StNGzISU9Fy5JiQJe1I2K-IaSSMK4hHeMeQ98Pjpw-nqJIwWYmBw&flowName=GeneralOAuthFlow&as=S-1962315646%3A1768885350628997&client_id=455662147616-fai32tqkrc0mqkouoe6l0suk287lkb1k.apps.googleusercontent.com&rapt=AEjHL4NdkiCXEiwsp4NINN66MK8c93II6tUHJLeghV-LUwESEVd6-S2S9jxHASNRz2mCNe4nNrER7eXY2qXlSbrN_F6XbSM18SSpFpd12VYzLJBON6z0Lzk&requestPath=%2Fsignin%2Foauth%2Fconsent#",
      "destination_time_usec" : 1768885356787925
    },
    {
      "url" : "https://accounts.google.com/signin/oauth/id?authuser=0&part=AJi8hAPVeSxV0VJVKIx3M5UW3wQ-T4YxPVIFYOiJRuDQYLMb9Rx5ApHHhiY6ihOntxCgGaDpd-j1C0GPTlxJkZ-gyBwoqPtoyFo-XxdYEtKdES2Q9dHblImvRRls5YNOJwOxkWLc_uCQ1pGcsQFM-5IgXDRKVRISAi4Wp3lZCyPqANT624JqNlpW5RNV5Uvhg6UaCkkUeovlSd2jc0N-BlRBOUdIBg_Gn4Gs56AzcmPvU-u8Jw6dZWJzN0s5rUpAGVumSr3GNIKuRAefH-kYQae29RPPFfMD6hEVQMymm0jrDecMW-o16kPqvt5V8n44Iu2HcESGTz81FQ2pQ-rt3VTzznSl8Y6PGfI7Z1Z_8x3VG3czrfubgWHHOKGr8MTYTOz91xYScp7dQ_c4DROU2OyZAD9D69mie2eQ3HdxpNQw9DWLO6wu7Y-UaNwxNkSpIOjzjH_3rjvxFoARTTuewfqPguHtjOGFSxcPQ3xa-r93jPiiMKgzhFHoEOdN4DB1k3fOd-mcRmmEIjUWfj2qpdjTmMIh3N3uL4kHSaizqzqfq3VQ_E5UYfHxpFrm5MP0KnuOCuXpxzGlZrSLrNinvzf6nLEKtvRqR_dXuVQ20FTb2p3gVfRE16ArqlMXWnRISRShfQvK2piGuX9IJf0CrwxCylHWEf-s0fzSFiV1uqtUCWgrLavcGZE_vgk9QLz_o3JalPQF1BgMpDzc1-xb-8eGjBopDTB89tOTubJ5IO2twKPX76RL8q16ubWLmK0jIOHn6G4AfqKA977dGw69vh357rsu6k348LC0SjKk8wYwF8StNGzISU9Fy5JiQJe1I2K-IaSSMK4hHeMeQ98Pjpw-nqJIwWYmBw&flowName=GeneralOAuthFlow&as=S-1962315646%3A1768885350628997&client_id=455662147616-fai32tqkrc0mqkouoe6l0suk287lkb1k.apps.googleusercontent.com&rapt=AEjHL4NdkiCXEiwsp4NINN66MK8c93II6tUHJLeghV-LUwESEVd6-S2S9jxHASNRz2mCNe4nNrER7eXY2qXlSbrN_F6XbSM18SSpFpd12VYzLJBON6z0Lzk&requestPath=%2Fsignin%2Foauth%2Fconsent#",
      "time_usec" : 1768885356945966,
      "visit_count" : 2,
      "title" : "Sign in – Google accounts"
    },
    {
      "url" : "https://accounts.x.ai/account?accountLinkSuccess=true",
      "time_usec" : 1768885359875984,
      "visit_count" : 2,
      "title" : "Your xAI API Account | xAI Single-Sign On"
    },
    {
      "url" : "https://accounts.x.ai/account",
      "time_usec" : 1768885362183099,
      "visit_count" : 6,
      "title" : "Your xAI API Account | xAI Single-Sign On"
    },
    {
      "url" : "https://x.com/i/oauth2/authorize?response_type=code&client_id=V3NubFR4MTR6S0RjenkwZjBfOWI6MTpjaQ&state=eyJ0b2tlbiI6Inp6cTZMM0h3dWpLZnFBMkI4aGd4X2ciLCJtZXRhZGF0YSI6eyJpbnRlbnRpb24iOiJsaW5rLWFjY291bnQiLCJwcm9tcHRPbkR1cGxpY2F0ZUVtYWlsIjoiZmFsc2UifX0&code_challenge=PCGrqiXdFa4ReurHpXCzss_Wz0UZ3WT0McAKisDBhjs&code_challenge_method=S256&redirect_uri=https%3A%2F%2Faccounts.x.ai%2Fexchange-token%2F&scope=tweet.read+users.read+users.email+offline.access",
      "time_usec" : 1768885368793877,
      "visit_count" : 2
    },
    {
      "url" : "https://x.com/i/flow/login?redirect_after_login=%2Fi%2Foauth2%2Fauthorize%3Fresponse_type%3Dcode%26client_id%3DV3NubFR4MTR6S0RjenkwZjBfOWI6MTpjaQ%26state%3DeyJ0b2tlbiI6Inp6cTZMM0h3dWpLZnFBMkI4aGd4X2ciLCJtZXRhZGF0YSI6eyJpbnRlbnRpb24iOiJsaW5rLWFjY291bnQiLCJwcm9tcHRPbkR1cGxpY2F0ZUVtYWlsIjoiZmFsc2UifX0%26code_challenge%3DPCGrqiXdFa4ReurHpXCzss_Wz0UZ3WT0McAKisDBhjs%26code_challenge_method%3DS256%26redirect_uri%3Dhttps%253A%252F%252Faccounts.x.ai%252Fexchange-token%252F%26scope%3Dtweet.read%2Busers.read%2Busers.email%2Boffline.access",
      "time_usec" : 1768885370059603,
      "visit_count" : 1,
      "title" : "Log in to X / X"
    },
    {
      "url" : "https://web.archive.org/web/*/https://www.icloud.com/shortcuts/1c82aeedbde14bc785b79aa6d89ec392",
      "time_usec" : 1768885690935500,
      "visit_count" : 2,
      "title" : "Wayback Machine"
    },
    {
      "url" : "https://web.archive.org/web/changes/https://www.icloud.com/shortcuts/1c82aeedbde14bc785b79aa6d89ec392",
      "time_usec" : 1768885716644364,
      "visit_count" : 1,
      "title" : "Wayback Machine - Changes of https://www.icloud.com/shortcuts/1c82aeedbde14bc785b79aa6d89ec392"
    },
    {
      "url" : "https://archive.org/account/login",
      "time_usec" : 1768885723927244,
      "visit_count" : 1,
      "destination_url" : "https://archive.org/login?referer=https://web.archive.org/web/collections/20260000000000*/https://www.icloud.com/shortcuts/1c82aeedbde14bc785b79aa6d89ec392",
      "destination_time_usec" : 1768885723927539
    },
    {
      "url" : "https://archive.org/login?referer=https://web.archive.org/web/collections/20260000000000*/https://www.icloud.com/shortcuts/1c82aeedbde14bc785b79aa6d89ec392",
      "time_usec" : 1768885723927539,
      "visit_count" : 1,
      "title" : "Log in to the Internet Archive",
      "source_url" : "https://archive.org/account/login",
      "source_time_usec" : 1768885723927244
    },
    {
      "url" : "https://web.archive.org/web/collections/20260000000000*/https://www.icloud.com/shortcuts/1c82aeedbde14bc785b79aa6d89ec392",
      "time_usec" : 1768885741525958,
      "visit_count" : 3,
      "title" : "Wayback Machine - Collections of https://www.icloud.com/shortcuts/1c82aeedbde14bc785b79aa6d89ec392"
    },
    {
      "url" : "https://web.archive.org/web/*/https://www.icloud.com/shortcuts/1c82aeedbde14bc785b79aa6d89ec392*",
      "time_usec" : 1768885750051108,
      "visit_count" : 2,
      "title" : "Wayback Machine - URLs of https://www.icloud.com/shortcuts/1c82aeedbde14bc785b79aa6d89ec392"
    },
    {
      "url" : "https://web.archive.org/web/20260000000000*/https://www.icloud.com/shortcuts/1c82aeedbde14bc785b79aa6d89ec392",
      "time_usec" : 1768885755586154,
      "visit_count" : 2,
      "title" : "Wayback Machine - URLs of https://www.icloud.com/shortcuts/1c82aeedbde14bc785b79aa6d89ec392"
    },
    {
      "url" : "https://archive.org/details/@fadakacoin/web-archive",
      "time_usec" : 1768885761984613,
      "visit_count" : 1,
      "title" : "Internet Archive: Digital Library of Free & Borrowable Texts, Movies, Music & Wayback Machine"
    },
    {
      "url" : "https://web.archive.org/save/https://www.icloud.com/shortcuts/1c82aeedbde14bc785b79aa6d89ec392",
      "time_usec" : 1768885859947167,
      "visit_count" : 2,
      "title" : "Wayback Machine",
      "latest_visit_was_http_get" : false
    },
    {
      "url" : "https://archive.org/details/@fadakacoin/posts",
      "time_usec" : 1768885929559538,
      "visit_count" : 1,
      "title" : "Internet Archive: Digital Library of Free & Borrowable Texts, Movies, Music & Wayback Machine"
    },
    {
      "url" : "https://archive.org/details/@fadakacoin/reviews",
      "time_usec" : 1768885931601136,
      "visit_count" : 1,
      "title" : "Internet Archive: Digital Library of Free & Borrowable Texts, Movies, Music & Wayback Machine"
    },
    {
      "url" : "https://archive.org/details/@fadakacoin/loans",
      "time_usec" : 1768885933105824,
      "visit_count" : 1,
      "title" : "Internet Archive: Digital Library of Free & Borrowable Texts, Movies, Music & Wayback Machine"
    },
    {
      "url" : "https://archive.org/details/@fadakacoin/loans#on-loan",
      "time_usec" : 1768885933112320,
      "visit_count" : 1,
      "title" : "Internet Archive: Digital Library of Free & Borrowable Texts, Movies, Music & Wayback Machine"
    },
    {
      "url" : "https://archive.org/details/@fadakacoin/uploads#on-loan",
      "time_usec" : 1768885935326931,
      "visit_count" : 1,
      "title" : "Internet Archive: Digital Library of Free & Borrowable Texts, Movies, Music & Wayback Machine"
    },
    {
      "url" : "https://archive.org/details/@fadakacoin/uploads",
      "time_usec" : 1768885935332563,
      "visit_count" : 1,
      "title" : "Internet Archive: Digital Library of Free & Borrowable Texts, Movies, Music & Wayback Machine"
    },
    {
      "url" : "https://archive.org/create",
      "time_usec" : 1768885941007625,
      "visit_count" : 1,
      "destination_url" : "https://archive.org/create/",
      "destination_time_usec" : 1768885941007848
    },
    {
      "url" : "https://archive.org/create/",
      "time_usec" : 1768885941007848,
      "visit_count" : 1,
      "title" : "Internet Archive: Create item",
      "source_url" : "https://archive.org/create",
      "source_time_usec" : 1768885941007625
    },
    {
      "url" : "https://archive.org/upload",
      "time_usec" : 1768885958696097,
      "visit_count" : 1,
      "title" : "Upload to Internet Archive"
    },
    {
      "url" : "https://archive.org/create.php?lma=1",
      "time_usec" : 1768885982863943,
      "visit_count" : 2,
      "title" : "Internet Archive: Create item"
    },
    {
      "url" : "https://archive.org/upload/?subject=Live+concert&type=sound&identifier=AR2026-09-01&date=2026-09-01&collection=etree:,etree&title=Aura.radio%20Live%20at%20Live%20on%202026-09-01&venue=Live&creator=Aura.radio&year=2026",
      "time_usec" : 1768886136007850,
      "visit_count" : 1,
      "title" : "Upload to Internet Archive"
    },
    {
      "url" : "https://web.archive.org/save",
      "time_usec" : 1768886303798228,
      "visit_count" : 4,
      "title" : "Wayback Machine"
    },
    {
      "url" : "https://archive.org/details/@fadakacoin",
      "time_usec" : 1768886310538967,
      "visit_count" : 1,
      "title" : "Internet Archive: Digital Library of Free & Borrowable Texts, Movies, Music & Wayback Machine"
    },
    {
      "url" : "https://archive.org/editxml/@fadakacoin",
      "time_usec" : 1768886329946910,
      "visit_count" : 1,
      "title" : "Item Edit: @fadakacoin: Internet Archive"
    },
    {
      "url" : "https://archive.org/account/settings",
      "time_usec" : 1768886361890926,
      "visit_count" : 1,
      "title" : "Internet Archive: Digital Library of Free & Borrowable Texts, Movies, Music & Wayback Machine"
    },
    {
      "url" : "https://github.com/nlohmann/json",
      "time_usec" : 1768910987264624,
      "visit_count" : 3,
      "title" : "GitHub - nlohmann/json: JSON for Modern C++"
    },
    {
      "url" : "https://github.com/nlohmann/json?tab=readme-ov-file",
      "time_usec" : 1768911248025990,
      "visit_count" : 1,
      "title" : "GitHub - nlohmann/json: JSON for Modern C++"
    },
    {
      "url" : "https://json.nlohmann.me/integration/package_managers/#bazel",
      "time_usec" : 1768911268652897,
      "visit_count" : 3,
      "title" : "Package Managers - JSON for Modern C++"
    },
    {
      "url" : "https://json.nlohmann.me/integration/package_managers/#meson",
      "time_usec" : 1768911272610103,
      "visit_count" : 7,
      "title" : "Package Managers - JSON for Modern C++"
    },
    {
      "url" : "https://json.nlohmann.me/integration/package_managers/#homebrew",
      "time_usec" : 1768911450533391,
      "visit_count" : 8,
      "title" : "Package Managers - JSON for Modern C++"
    },
    {
      "url" : "https://json.nlohmann.me/integration/package_managers/#running-example",
      "time_usec" : 1768911452542078,
      "visit_count" : 19,
      "title" : "Package Managers - JSON for Modern C++"
    },
    {
      "url" : "https://json.nlohmann.me/integration/package_managers/",
      "time_usec" : 1768911455835569,
      "visit_count" : 45,
      "title" : "Package Managers - JSON for Modern C++"
    },
    {
      "url" : "https://json.nlohmann.me/integration/package_managers/#xmake",
      "time_usec" : 1768911461545140,
      "visit_count" : 9,
      "title" : "Package Managers - JSON for Modern C++"
    },
    {
      "url" : "https://json.nlohmann.me/integration/package_managers/#other-package-managers",
      "time_usec" : 1768911462812075,
      "visit_count" : 4,
      "title" : "Package Managers - JSON for Modern C++"
    },
    {
      "url" : "https://json.nlohmann.me/integration/package_managers/#cocoapods",
      "time_usec" : 1768911470011420,
      "visit_count" : 2,
      "title" : "Package Managers - JSON for Modern C++"
    },
    {
      "url" : "https://json.nlohmann.me/integration/package_managers/#buckaroo",
      "time_usec" : 1768911470161399,
      "visit_count" : 1,
      "title" : "Package Managers - JSON for Modern C++"
    },
    {
      "url" : "https://cocoapods.org/pods/nlohmann_json",
      "time_usec" : 1768911471600649,
      "visit_count" : 1,
      "title" : "nlohmann_json on CocoaPods.org"
    },
    {
      "url" : "https://wrapdb.mesonbuild.com/nlohmann_json",
      "time_usec" : 1768911627716644,
      "visit_count" : 1,
      "title" : "404 Not Found",
      "latest_visit_was_load_failure" : true
    },
    {
      "url" : "https://github.com/nlohmann/json/blob/develop/doc/examples/emplace.cpp",
      "time_usec" : 1768911886548658,
      "visit_count" : 5,
      "title" : "File not found · GitHub",
      "latest_visit_was_load_failure" : true
    },
    {
      "url" : "https://github.com/nlohmann/json/tree/develop/doc/examples",
      "time_usec" : 1768911891004919,
      "visit_count" : 1,
      "title" : "404 Page not found · GitHub",
      "latest_visit_was_load_failure" : true
    },
    {
      "url" : "https://github.com/nlohmann/json/tree/develop/doc",
      "time_usec" : 1768911893592075,
      "visit_count" : 1,
      "title" : "404 Page not found · GitHub",
      "latest_visit_was_load_failure" : true
    },
    {
      "url" : "https://github.com/nlohmann/json/blob/develop/Makefile",
      "time_usec" : 1768911942020430,
      "visit_count" : 4,
      "title" : "json/Makefile at develop · nlohmann/json · GitHub",
      "latest_visit_was_load_failure" : true
    },
    {
      "url" : "https://github.com/nlohmann/json/tree/develop",
      "time_usec" : 1768912069495513,
      "visit_count" : 3,
      "title" : "GitHub - nlohmann/json: JSON for Modern C++",
      "latest_visit_was_load_failure" : true
    },
    {
      "url" : "https://github.com/nlohmann/json/blob/develop/.reuse/dep5",
      "time_usec" : 1768912086639313,
      "visit_count" : 1,
      "title" : "json/.reuse/dep5 at develop · nlohmann/json · GitHub",
      "latest_visit_was_load_failure" : true
    },
    {
      "url" : "https://github.com/nlohmann/json/tree/develop/.reuse",
      "time_usec" : 1768912120383428,
      "visit_count" : 5,
      "title" : "json/.reuse at develop · nlohmann/json · GitHub",
      "latest_visit_was_load_failure" : true
    },
    {
      "url" : "https://github.com/nlohmann/json/blob/develop/.reuse/templates/json.jinja2",
      "time_usec" : 1768912125524420,
      "visit_count" : 1,
      "title" : "json/.reuse/templates/json.jinja2 at develop · nlohmann/json · GitHub",
      "latest_visit_was_load_failure" : true
    },
    {
      "url" : "https://github.com/nlohmann/json/tree/develop/.reuse/templates",
      "time_usec" : 1768912250403760,
      "visit_count" : 2,
      "title" : "json/.reuse/templates at develop · nlohmann/json · GitHub",
      "latest_visit_was_load_failure" : true
    },
    {
      "url" : "https://github.com/nlohmann/json/blob/develop/.reuse/templates/json_support.jinja2",
      "time_usec" : 1768912254913658,
      "visit_count" : 1,
      "title" : "json/.reuse/templates/json_support.jinja2 at develop · nlohmann/json · GitHub",
      "latest_visit_was_load_failure" : true
    },
    {
      "url" : "https://webkit.org/downloads/",
      "time_usec" : 1768921016285163,
      "visit_count" : 1,
      "title" : "WebKit Downloads | WebKit"
    },
    {
      "url" : "https://webkit.org/build-archives/",
      "time_usec" : 1768921042088251,
      "visit_count" : 1,
      "title" : "WebKit Build Archives | WebKit"
    },
    {
      "url" : "https://webkit.org/build-archives/#mac-sequoia-x86_64-arm64",
      "time_usec" : 1768921055172412,
      "visit_count" : 1,
      "title" : "WebKit Build Archives | WebKit"
    },
    {
      "url" : "https://webkit.org/build-archives/#mac-tahoe-x86_64-arm64",
      "time_usec" : 1768921057615014,
      "visit_count" : 1,
      "title" : "WebKit Build Archives | WebKit"
    },
    {
      "url" : "https://webkit.org/build-archives/#mac-sonoma-x86_64-arm64",
      "time_usec" : 1768921092628725,
      "visit_count" : 2,
      "title" : "WebKit Build Archives | WebKit"
    },
    {
      "url" : "https://webkit.org/standards-positions/",
      "time_usec" : 1768921111903499,
      "visit_count" : 1,
      "title" : "Standards Positions | WebKit"
    },
    {
      "url" : "https://wicg.github.io/webcrypto-secure-curves/",
      "time_usec" : 1768921139259003,
      "visit_count" : 1,
      "title" : "Secure Curves in the Web Cryptography API"
    },
    {
      "url" : "https://html.spec.whatwg.org/multipage/custom-elements.html#customized-built-in-element",
      "time_usec" : 1768921154667994,
      "visit_count" : 1,
      "title" : "HTML Standard"
    },
    {
      "url" : "https://html.spec.whatwg.org/multipage/custom-elements.html#valid-custom-element-name",
      "time_usec" : 1768921186391321,
      "visit_count" : 1,
      "title" : "HTML Standard"
    },
    {
      "url" : "https://infra.spec.whatwg.org/#code-point",
      "time_usec" : 1768921193931687,
      "visit_count" : 1,
      "title" : "Infra Standard"
    },
    {
      "url" : "https://infra.spec.whatwg.org/#biblio-unicode",
      "time_usec" : 1768921202996940,
      "visit_count" : 1,
      "title" : "Infra Standard"
    },
    {
      "url" : "https://storage.spec.whatwg.org/",
      "time_usec" : 1768921208709233,
      "visit_count" : 1,
      "title" : "Storage Standard"
    },
    {
      "url" : "https://storage.spec.whatwg.org/#idl-index",
      "time_usec" : 1768921217305244,
      "visit_count" : 1,
      "title" : "Storage Standard"
    },
    {
      "url" : "https://webidl.spec.whatwg.org/",
      "time_usec" : 1768921254963336,
      "visit_count" : 1,
      "title" : "Web IDL Standard"
    },
    {
      "url" : "https://webidl.spec.whatwg.org/#introduction",
      "time_usec" : 1768921258381908,
      "visit_count" : 1,
      "title" : "Web IDL Standard"
    },
    {
      "url" : "https://tc39.es/ecma262/#sec-built-in-function-objects",
      "time_usec" : 1768931125192114,
      "visit_count" : 1,
      "title" : "ECMAScript® 2026 Language Specification"
    },
    {
      "url" : "https://download.netify.ai/5/almalinux/9/stable/x86_64/netify-sink-log_1.0.33-1.os9.x86_64.rpm",
      "time_usec" : 1768959372785464,
      "visit_count" : 1,
      "destination_url" : "https://download.netify.ai/_theme/missing.html",
      "destination_time_usec" : 1768959372785714
    },
    {
      "url" : "https://download.netify.ai/llms.txt",
      "time_usec" : 1768959419089944,
      "visit_count" : 2,
